City_ID,City,Country,Lat,Lng,Max Temp,Humidity,Cloudiness,Wind Speed,Current Description,Date
0,Georgetown,MY,5.4112,100.3354,80.53,93,20,3.44,few clouds,2022-04-18 18:49:00
1,Jutai,BR,-5.1833,-68.9,80.55,89,50,2.66,light rain,2022-04-18 18:49:01
2,Rio Gallegos,AR,-51.6226,-69.2181,51.42,57,100,20.54,overcast clouds,2022-04-18 18:49:01
3,Algiers,DZ,36.7525,3.042,64.22,48,75,6.91,broken clouds,2022-04-18 18:44:03
4,Port Alfred,ZA,-33.5906,26.891,60.19,95,46,2.28,scattered clouds,2022-04-18 18:40:51
5,Rudbar,AF,30.15,62.6,66.07,47,96,23.0,light rain,2022-04-18 18:49:02
6,Verkhnyaya Inta,RU,65.9811,60.3094,28.62,97,99,11.92,overcast clouds,2022-04-18 18:49:02
7,Jamestown,US,42.097,-79.2353,36.52,65,100,17.27,light snow,2022-04-18 18:39:07
8,Bambous Virieux,MU,-20.3428,57.7575,79.21,94,40,10.36,scattered clouds,2022-04-18 18:49:02
9,Hobyo,SO,5.3505,48.5268,83.77,80,44,14.27,scattered clouds,2022-04-18 18:49:03
10,Narsaq,GL,60.9167,-46.05,43.02,49,100,4.99,overcast clouds,2022-04-18 18:49:03
11,Bandarbeyla,SO,9.4942,50.8122,82.06,80,0,9.86,clear sky,2022-04-18 18:49:03
12,Kampene,CD,-3.6,26.6667,70.66,97,91,1.41,light rain,2022-04-18 18:48:00
13,Schoonhoven,NL,51.9475,4.8486,60.96,51,100,6.42,overcast clouds,2022-04-18 18:49:04
14,Vila Velha,BR,-20.3297,-40.2925,80.55,62,20,17.27,few clouds,2022-04-18 18:49:04
15,Montepuez,MZ,-13.1256,38.9997,68.81,97,49,3.94,scattered clouds,2022-04-18 18:49:05
16,Cape Town,ZA,-33.9258,18.4232,64.9,83,0,12.66,clear sky,2022-04-18 18:36:23
17,Lulea,SE,65.5842,22.1547,35.67,87,0,5.75,clear sky,2022-04-18 18:49:05
18,Punta Arenas,CL,-53.15,-70.9167,51.91,62,75,10.36,broken clouds,2022-04-18 18:49:06
19,Coihaique,CL,-45.5752,-72.0662,59.61,54,40,8.05,scattered clouds,2022-04-18 18:45:02
20,Muros,ES,42.7762,-9.0603,56.84,64,5,16.69,clear sky,2022-04-18 18:49:06
21,Kudahuvadhoo,MV,2.6708,72.8944,83.62,69,100,5.55,overcast clouds,2022-04-18 18:49:06
22,Hithadhoo,MV,-0.6,73.0833,83.46,71,100,2.91,overcast clouds,2022-04-18 18:49:07
23,Jizan,SA,17.3333,42.6667,86.94,56,7,1.7,clear sky,2022-04-18 18:49:07
24,Gwadar,PK,25.1216,62.3254,80.06,90,72,4.76,broken clouds,2022-04-18 18:49:07
25,Cidreira,BR,-30.1811,-50.2056,70.99,67,89,12.26,overcast clouds,2022-04-18 18:49:08
26,Ushuaia,AR,-54.8,-68.3,46.06,71,75,4.61,broken clouds,2022-04-18 18:49:08
27,Hermanus,ZA,-34.4187,19.2345,61.81,88,4,10.18,clear sky,2022-04-18 18:49:08
28,Delta Del Tigre,UY,-34.7633,-56.3853,70.21,73,75,11.5,broken clouds,2022-04-18 18:49:09
29,Sao Filipe,CV,14.8961,-24.4956,72.5,75,79,11.81,broken clouds,2022-04-18 18:49:09
30,Ponta Do Sol,PT,32.6667,-17.1,66.13,64,13,11.95,few clouds,2022-04-18 18:49:09
31,Bredasdorp,ZA,-34.5322,20.0403,59.88,91,5,6.98,clear sky,2022-04-18 18:49:10
32,Nanortalik,GL,60.1432,-45.2371,35.01,74,100,1.99,overcast clouds,2022-04-18 18:49:10
33,Padre Bernardo,BR,-15.35,-48.5,89.96,29,19,2.1,few clouds,2022-04-18 18:49:10
34,Grindavik,IS,63.8424,-22.4338,45.07,70,75,16.11,broken clouds,2022-04-18 18:49:11
35,Cabrobo,BR,-8.5142,-39.31,87.17,50,100,7.36,moderate rain,2022-04-18 18:49:11
36,Busselton,AU,-33.65,115.3333,61.48,87,94,5.08,overcast clouds,2022-04-18 18:49:12
37,Gazli,UZ,40.1333,63.45,58.28,76,100,8.59,overcast clouds,2022-04-18 18:49:12
38,Bengkulu,ID,-3.8004,102.2655,75.04,89,100,4.47,overcast clouds,2022-04-18 18:49:12
39,Dingle,PH,10.9995,122.6711,76.82,85,25,9.42,scattered clouds,2022-04-18 18:49:13
40,Dikson,RU,73.5069,80.5464,2.35,94,100,13.27,overcast clouds,2022-04-18 18:49:13
41,Senador Jose Porfirio,BR,-2.5908,-51.9542,83.35,71,98,1.97,overcast clouds,2022-04-18 18:49:13
42,Amapa,BR,1.0,-52.0,78.66,95,100,2.19,overcast clouds,2022-04-18 18:49:14
43,Kisangani,CD,0.5167,25.2,71.6,95,62,0.34,light rain,2022-04-18 18:49:14
44,Iqaluit,CA,63.7506,-68.5145,-0.31,70,100,3.44,overcast clouds,2022-04-18 18:49:14
45,Tikapur,NP,28.5,81.1333,80.26,16,0,5.82,clear sky,2022-04-18 18:49:15
46,Dibombari,CM,4.1787,9.6561,78.39,89,100,3.83,light rain,2022-04-18 18:49:15
47,Dhamtari,IN,20.7072,81.5497,85.86,20,5,6.69,clear sky,2022-04-18 18:49:15
48,Camacha,PT,33.0833,-16.3333,60.22,72,75,14.97,broken clouds,2022-04-18 18:49:16
49,Muisne,EC,0.6,-80.0333,80.65,73,92,10.54,overcast clouds,2022-04-18 18:49:16
50,Bom Jesus Do Itabapoana,BR,-21.1339,-41.6797,74.95,72,85,4.68,overcast clouds,2022-04-18 18:49:17
51,Souillac,MU,-20.5167,57.5167,79.18,94,40,10.36,scattered clouds,2022-04-18 18:49:17
52,Niamey,NE,13.5137,2.1098,98.89,8,100,6.91,overcast clouds,2022-04-18 18:49:17
53,Mahebourg,MU,-20.4081,57.7,79.25,94,40,10.36,scattered clouds,2022-04-18 18:49:18
54,Saint George,US,37.1041,-113.5841,84.63,11,0,4.61,clear sky,2022-04-18 18:47:55
55,Upernavik,GL,72.7868,-56.1549,9.0,90,100,2.8,light snow,2022-04-18 18:49:18
56,Qaanaaq,GL,77.484,-69.3632,-7.92,80,9,1.68,clear sky,2022-04-18 18:49:19
57,Peto,MX,20.1333,-88.9167,101.08,20,1,4.25,clear sky,2022-04-18 18:46:16
58,Banepa,NP,27.6298,85.5214,66.52,77,20,3.44,mist,2022-04-18 18:49:19
59,Ambilobe,MG,-13.2,49.05,74.59,92,48,2.89,scattered clouds,2022-04-18 18:49:20
60,Uryupinsk,RU,50.8047,42.0138,54.61,65,100,11.34,overcast clouds,2022-04-18 18:49:20
61,Carballo,ES,43.213,-8.691,53.76,83,90,9.51,overcast clouds,2022-04-18 18:49:20
62,Bluefields,NI,12.0137,-83.7635,87.87,70,40,6.91,scattered clouds,2022-04-18 18:49:21
63,Plavsk,RU,53.7094,37.2919,38.64,97,100,13.24,light rain,2022-04-18 18:49:21
64,Manicore,BR,-5.8092,-61.3003,85.98,70,96,1.97,overcast clouds,2022-04-18 18:49:22
65,Gashua,NG,12.871,11.0482,87.15,32,82,8.28,broken clouds,2022-04-18 18:49:22
66,Sao Joao Da Barra,BR,-21.6403,-41.0511,80.69,65,29,13.51,scattered clouds,2022-04-18 18:49:22
67,Bar-Le-Duc,FR,48.75,5.1667,59.38,71,100,5.3,overcast clouds,2022-04-18 18:45:00
68,Cajati,BR,-24.7361,-48.1228,71.08,74,80,3.91,broken clouds,2022-04-18 18:46:15
69,Aljezur,PT,37.3191,-8.8033,58.3,76,0,22.5,clear sky,2022-04-18 18:49:23
70,Laguna,US,38.421,-121.4238,66.78,54,0,9.22,clear sky,2022-04-18 18:49:23
71,Libohove,AL,40.0311,20.2631,44.78,96,100,4.14,overcast clouds,2022-04-18 18:49:23
72,Dhidhdhoo,MV,6.8833,73.1,84.56,72,60,7.27,broken clouds,2022-04-18 18:49:24
73,Russkoye,UA,45.0167,34.8,43.97,93,95,6.29,overcast clouds,2022-04-18 18:49:24
74,Castleford,GB,53.7259,-1.3626,56.41,64,99,4.05,overcast clouds,2022-04-18 18:49:24
75,Tarrega,ES,41.647,1.1396,62.98,73,2,7.72,clear sky,2022-04-18 18:49:25
76,Geraldton,AU,-28.7667,114.6,55.81,67,0,10.36,clear sky,2022-04-18 18:49:25
77,Pasni,PK,25.2631,63.471,79.75,92,4,3.62,clear sky,2022-04-18 18:49:25
78,Carnot,CF,4.9409,15.8665,69.8,97,100,2.73,overcast clouds,2022-04-18 18:49:26
79,Manapparai,IN,10.6,78.4167,85.06,67,14,1.9,few clouds,2022-04-18 18:49:26
80,Tasiilaq,GL,65.6145,-37.6368,33.96,97,100,5.99,light snow,2022-04-18 18:49:26
81,Ivybridge,GB,50.3904,-3.9191,52.72,71,12,9.62,few clouds,2022-04-18 18:49:27
82,Derzhavinsk,KZ,51.1,66.3167,48.33,57,2,6.24,clear sky,2022-04-18 18:49:27
83,Hofn,IS,64.2539,-15.2082,46.42,66,100,19.57,light intensity drizzle,2022-04-18 18:49:27
84,Louga,RU,58.7372,29.8453,41.94,83,100,4.41,overcast clouds,2022-04-18 18:49:28
85,Aasiaat,GL,68.7098,-52.8699,11.3,78,100,11.95,overcast clouds,2022-04-18 18:49:28
86,Chuy,UY,-33.6971,-53.4616,69.91,64,21,11.05,few clouds,2022-04-18 18:49:28
87,Marzuq,YE,14.4,46.4667,74.25,54,6,5.86,clear sky,2022-04-18 18:49:28
88,Leh,IN,34.1667,77.5833,39.54,42,0,5.26,clear sky,2022-04-18 18:49:29
89,Camana,PE,-16.6228,-72.7111,71.35,66,42,7.96,scattered clouds,2022-04-18 18:49:29
90,Inhambane,MZ,-23.865,35.3833,73.38,94,75,0.0,drizzle,2022-04-18 18:49:29
91,Iralaya,HN,15.0,-83.2333,85.12,59,5,11.23,clear sky,2022-04-18 18:49:30
92,Sarakhs,IR,36.5449,61.1577,55.63,62,100,8.43,overcast clouds,2022-04-18 18:49:30
93,Uaua,BR,-9.8414,-39.4817,80.22,67,88,14.5,overcast clouds,2022-04-18 18:49:30
94,Piacabucu,BR,-10.4056,-36.4344,82.71,67,65,9.69,broken clouds,2022-04-18 18:49:31
95,Kemi,FI,65.8596,24.8228,33.57,93,0,3.44,clear sky,2022-04-18 18:49:31
96,Araouane,ML,18.9048,-3.5265,81.01,9,0,8.84,clear sky,2022-04-18 18:49:31
97,Ilulissat,GL,69.2167,-51.1,15.82,79,100,12.66,light shower snow,2022-04-18 18:49:31
98,Beira,MZ,-19.8436,34.8389,78.89,78,20,10.36,few clouds,2022-04-18 18:49:32
99,Niquero,CU,20.0431,-77.5828,82.85,63,23,1.99,few clouds,2022-04-18 18:49:32
100,Codrington,AU,-38.2667,141.9667,55.2,82,100,7.67,overcast clouds,2022-04-18 18:49:32
101,Lebu,CL,-37.6167,-73.65,57.79,87,100,5.73,overcast clouds,2022-04-18 18:46:07
102,Lantana,US,26.5867,-80.052,89.06,66,75,10.36,broken clouds,2022-04-18 18:49:33
103,Bonavista,CA,48.6499,-53.1147,38.03,76,100,19.95,overcast clouds,2022-04-18 18:49:33
104,Band,RO,46.5833,24.3833,44.58,52,100,0.0,overcast clouds,2022-04-18 18:49:33
105,Requena,ES,39.4883,-1.1004,54.52,83,63,5.35,broken clouds,2022-04-18 18:49:34
106,Bathsheba,BB,13.2167,-59.5167,84.81,65,40,19.57,scattered clouds,2022-04-18 18:49:34
107,Olesno,PL,50.877,18.4209,42.1,56,100,5.95,overcast clouds,2022-04-18 18:49:34
108,Lusambo,CD,-4.9667,23.45,73.62,92,56,2.06,broken clouds,2022-04-18 18:49:35
109,Benghazi,LY,32.1167,20.0667,60.51,74,10,19.8,clear sky,2022-04-18 18:49:35
110,Bongandanga,CD,1.5,21.05,74.16,90,100,1.74,overcast clouds,2022-04-18 18:49:35
111,Henties Bay,NA,-22.116,14.2845,65.43,71,22,6.38,few clouds,2022-04-18 18:49:36
112,Salamiyah,SY,35.0113,37.0532,78.57,21,100,9.4,overcast clouds,2022-04-18 18:49:36
113,Totness,SR,5.8833,-56.3167,81.63,71,91,10.63,overcast clouds,2022-04-18 18:49:36
114,Port Elizabeth,ZA,-33.918,25.5701,63.1,92,0,3.44,clear sky,2022-04-18 18:46:11
115,Toda Raisingh,IN,26.0252,75.4849,89.76,16,5,8.55,clear sky,2022-04-18 18:49:37
116,Arraial Do Cabo,BR,-22.9661,-42.0278,76.86,69,40,8.05,scattered clouds,2022-04-18 18:49:37
117,Ibra,OM,22.6906,58.5334,82.29,32,0,2.51,clear sky,2022-04-18 18:49:37
118,Nefteyugansk,RU,61.0998,72.6035,30.88,87,90,15.14,overcast clouds,2022-04-18 18:49:38
119,Casablanca,MA,33.5928,-7.6192,66.42,77,75,6.91,broken clouds,2022-04-18 18:47:54
120,Riyadh,SA,24.6877,46.7219,80.74,10,48,7.72,scattered clouds,2022-04-18 18:46:25
121,Manica,FR,49.0,-1.1667,46.27,83,100,4.16,overcast clouds,2022-04-18 18:49:38
122,Udankudi,IN,8.4333,78.0167,84.36,70,100,8.95,overcast clouds,2022-04-18 18:49:39
123,Mitsamiouli,KM,-11.3847,43.2844,82.69,74,20,9.22,few clouds,2022-04-18 18:49:39
124,Kruisfontein,ZA,-34.0033,24.7314,60.89,90,7,3.0,clear sky,2022-04-18 18:49:39
125,Castro,BR,-24.7911,-50.0119,67.62,57,43,3.18,scattered clouds,2022-04-18 18:49:39
126,Rawson,AR,-43.3002,-65.1023,69.37,42,5,4.79,clear sky,2022-04-18 18:49:01
127,Ugoofaaru,MV,5.6667,73.0,84.49,67,100,7.25,overcast clouds,2022-04-18 18:49:40
128,Marathon,US,44.9,-89.7668,34.36,79,100,9.22,overcast clouds,2022-04-18 18:49:40
129,Sana,YE,15.3547,44.2067,68.11,27,95,8.01,overcast clouds,2022-04-18 18:46:24
130,Teguise,ES,29.0605,-13.564,70.02,56,0,21.85,clear sky,2022-04-18 18:49:41
131,Los Llanos De Aridane,ES,28.6585,-17.9182,65.95,73,75,14.97,broken clouds,2022-04-18 18:49:41
132,Antalaha,MG,-14.9003,50.2788,74.75,88,96,7.7,overcast clouds,2022-04-18 18:49:41
133,Clyde River,CA,70.4692,-68.5914,-7.37,71,75,2.3,broken clouds,2022-04-18 18:49:42
134,Martinsburg,US,39.4562,-77.9639,36.68,93,100,3.44,fog,2022-04-18 18:49:20
135,Naliya,IN,23.2667,68.8333,80.04,80,70,10.42,broken clouds,2022-04-18 18:49:42
136,Constantine,DZ,36.365,6.6147,60.21,51,0,5.75,clear sky,2022-04-18 18:49:43
137,Point Pedro,LK,9.8167,80.2333,82.27,84,13,11.52,few clouds,2022-04-18 18:49:43
138,Uyuni,BO,-20.4597,-66.825,58.19,9,0,13.31,clear sky,2022-04-18 18:49:43
139,Buchanan,LR,5.8808,-10.0467,80.17,80,53,6.62,light rain,2022-04-18 18:49:43
140,Sorland,NO,67.667,12.6934,44.46,89,78,4.03,broken clouds,2022-04-18 18:49:44
141,Feldkirchen,DE,48.148,11.7434,48.88,71,18,2.1,few clouds,2022-04-18 18:49:44
142,Cabedelo,BR,-6.9811,-34.8339,88.47,70,82,10.4,broken clouds,2022-04-18 18:49:45
143,Jaru,BR,-10.4389,-62.4664,81.19,87,42,5.59,scattered clouds,2022-04-18 18:49:45
144,Mazzarino,IT,37.3043,14.2141,57.87,75,0,7.23,clear sky,2022-04-18 18:49:45
145,Touros,BR,-5.1989,-35.4608,84.15,67,94,11.25,overcast clouds,2022-04-18 18:45:55
146,Trinidad,BO,-14.8333,-64.9,85.98,39,4,10.36,clear sky,2022-04-18 18:49:46
147,Hornepayne,CA,49.2138,-84.7705,34.12,62,100,6.76,overcast clouds,2022-04-18 18:49:46
148,Molina,CL,-35.1167,-71.2833,75.06,29,40,7.9,scattered clouds,2022-04-18 18:49:46
149,Klaksvik,FO,62.2266,-6.589,45.52,85,8,23.78,light rain,2022-04-18 18:49:47
150,Izhma,RU,65.0083,53.9113,32.74,95,100,4.59,overcast clouds,2022-04-18 18:49:47
151,Turukhansk,RU,65.8167,87.9833,19.58,95,100,15.84,snow,2022-04-18 18:49:47
152,Lokachi,UA,50.737,24.6494,35.74,98,100,4.63,overcast clouds,2022-04-18 18:49:47
153,Arlit,NE,18.7369,7.3853,83.35,8,8,4.14,clear sky,2022-04-18 18:49:48
154,San Cristobal,VE,7.7669,-72.225,78.98,56,96,5.93,overcast clouds,2022-04-18 18:49:48
155,Cap-Aux-Meules,CA,47.3821,-61.8597,35.65,69,0,23.02,clear sky,2022-04-18 18:49:48
156,Victoria,HK,22.2855,114.1577,70.25,84,100,8.01,overcast clouds,2022-04-18 18:49:42
157,Sosnovka,RU,56.255,51.2842,33.55,100,100,2.13,overcast clouds,2022-04-18 18:49:49
158,Vredendal,ZA,-31.6683,18.5012,76.33,25,0,8.99,clear sky,2022-04-18 18:49:49
159,Beloha,MG,-25.1667,45.05,74.71,86,69,12.75,broken clouds,2022-04-18 18:49:50
160,Mecca,SA,21.4267,39.8261,87.42,22,7,2.98,clear sky,2022-04-18 18:47:57
161,Waddan,LY,29.1614,16.139,68.99,35,6,17.67,clear sky,2022-04-18 18:49:50
162,Nouadhibou,MR,20.931,-17.0347,69.78,78,100,14.97,overcast clouds,2022-04-18 18:49:50
163,Moussoro,TD,13.6408,16.4901,91.26,14,100,10.13,overcast clouds,2022-04-18 18:49:51
164,Muzaffarabad,PK,34.37,73.4711,71.31,48,100,6.73,overcast clouds,2022-04-18 18:49:51
165,Cayenne,GF,4.9333,-52.3333,77.04,1,100,3.44,overcast clouds,2022-04-18 18:45:22
166,Ilo,PE,-17.6394,-71.3375,70.66,68,0,6.91,clear sky,2022-04-18 18:49:51
167,Carnarvon,AU,-24.8667,113.6333,68.07,77,24,10.36,few clouds,2022-04-18 18:49:52
168,Salalah,OM,17.0151,54.0924,84.29,79,75,6.91,broken clouds,2022-04-18 18:49:52
169,Luba,GQ,3.4568,8.5547,81.75,81,100,5.01,light rain,2022-04-18 18:49:52
170,Borovsk,RU,55.2064,36.4861,41.27,73,100,7.61,overcast clouds,2022-04-18 18:49:53
171,Iquique,CL,-20.2208,-70.1431,67.71,67,7,6.64,clear sky,2022-04-18 18:46:14
172,East London,ZA,-33.0153,27.9116,65.34,94,100,10.36,light rain,2022-04-18 18:49:53
173,Sendafa,ET,9.15,39.0333,58.6,57,21,5.37,few clouds,2022-04-18 18:49:53
174,Palghar,IN,19.6833,72.75,80.01,74,0,3.96,clear sky,2022-04-18 18:49:54
175,Kutum,SD,14.2,24.6667,86.54,27,100,4.92,overcast clouds,2022-04-18 18:49:54
176,Moju,BR,-1.8839,-48.7689,81.41,91,100,1.97,overcast clouds,2022-04-18 18:49:54
177,Mahendranagar,NP,28.9167,80.3333,80.37,15,0,6.82,clear sky,2022-04-18 18:49:55
178,Marsh Harbour,BS,26.5412,-77.0636,77.36,75,80,7.76,broken clouds,2022-04-18 18:49:55
179,Sur,OM,22.5667,59.5289,84.65,52,0,5.44,clear sky,2022-04-18 18:49:55
180,Necochea,AR,-38.5473,-58.7368,69.87,57,96,12.08,overcast clouds,2022-04-18 18:49:56
181,Goderich,CA,43.7501,-81.7165,43.12,45,100,16.11,overcast clouds,2022-04-18 18:46:11
182,Lagoa,PT,39.05,-27.9833,58.26,71,8,16.33,clear sky,2022-04-18 18:49:56
183,Praia Da Vitoria,PT,38.7333,-27.0667,62.85,67,75,15.26,broken clouds,2022-04-18 18:49:56
184,Mar Del Plata,AR,-38.0023,-57.5575,64.42,91,40,15.99,scattered clouds,2022-04-18 18:47:19
185,Hanumangarh,IN,29.5833,74.3167,90.36,21,2,5.03,clear sky,2022-04-18 18:49:57
186,Asfi,MA,32.2994,-9.2372,63.57,83,53,16.67,broken clouds,2022-04-18 18:49:57
187,Skjervoy,NO,70.0311,20.9714,48.2,91,100,7.94,overcast clouds,2022-04-18 18:49:57
188,Monrovia,LR,6.3005,-10.7969,76.77,78,98,7.65,overcast clouds,2022-04-18 18:49:58
189,Tallahassee,US,30.4383,-84.2807,80.67,65,75,13.8,broken clouds,2022-04-18 18:45:39
190,Kristinehamn,SE,59.3098,14.1081,48.76,54,100,0.45,overcast clouds,2022-04-18 18:49:58
191,Trunovskoye,RU,45.4878,42.1358,67.68,69,100,7.65,overcast clouds,2022-04-18 18:49:59
192,Torbay,CA,47.6666,-52.7314,45.37,62,40,27.63,scattered clouds,2022-04-18 18:49:59
193,Marawi,PH,7.9986,124.2928,69.75,97,96,1.57,overcast clouds,2022-04-18 18:49:59
194,Pizarro,CO,4.9533,-77.366,80.17,85,100,9.33,light rain,2022-04-18 18:50:00
195,Misratah,LY,32.3754,15.0925,59.81,60,0,19.82,clear sky,2022-04-18 18:50:00
196,Kavaratti,IN,10.5669,72.642,84.45,70,84,6.22,broken clouds,2022-04-18 18:50:00
197,Onega,RU,63.9061,38.1404,28.78,94,83,1.99,broken clouds,2022-04-18 18:50:01
198,Ampanihy,MG,-24.7,44.75,74.59,82,99,6.82,overcast clouds,2022-04-18 18:50:01
199,Bria,CF,6.5423,21.9863,70.18,95,100,15.37,heavy intensity rain,2022-04-18 18:50:01
200,Ribeira Grande,PT,38.5167,-28.7,61.2,67,75,14.97,broken clouds,2022-04-18 18:50:02
201,Cockburn Town,TC,21.4612,-71.1419,82.36,65,40,16.11,scattered clouds,2022-04-18 18:45:34
202,Jalu,LY,29.0331,21.5482,69.44,40,0,9.26,clear sky,2022-04-18 18:48:08
203,Mehamn,NO,71.0357,27.8492,40.98,98,100,26.31,overcast clouds,2022-04-18 18:50:02
204,Isla Mujeres,MX,21.2311,-86.731,86.16,66,9,10.22,clear sky,2022-04-18 18:50:03
205,Maloy,NO,61.9353,5.1136,51.53,65,0,7.58,clear sky,2022-04-18 18:50:03
206,Oistins,BB,13.0667,-59.5333,84.29,65,40,19.57,scattered clouds,2022-04-18 18:50:04
207,Longyearbyen,SJ,78.2186,15.6401,15.64,73,20,3.44,few clouds,2022-04-18 18:50:04
208,Calabozo,VE,8.9242,-67.4293,91.94,37,94,2.08,overcast clouds,2022-04-18 18:50:04
209,Vardo,NO,70.3705,31.1107,39.18,81,75,18.41,broken clouds,2022-04-18 18:50:05
210,Kawambwa,ZM,-9.7915,29.0791,62.87,94,3,4.72,clear sky,2022-04-18 18:45:08
211,Nalut,LY,30.3333,10.85,66.92,19,0,11.41,clear sky,2022-04-18 18:50:05
212,Ndele,CF,8.4109,20.6473,75.67,71,100,3.44,overcast clouds,2022-04-18 18:50:06
213,Korla,CN,41.7597,86.1469,59.09,15,5,2.71,clear sky,2022-04-18 18:50:06
214,Quatre Cocos,MU,-20.2078,57.7625,79.09,85,28,11.12,scattered clouds,2022-04-18 18:50:06
215,Kushalgarh,IN,23.199,74.4507,86.18,18,0,8.37,clear sky,2022-04-18 18:50:07
216,Rio Grande,BR,-32.035,-52.0986,77.11,66,19,12.68,few clouds,2022-04-18 18:50:07
217,Tabou,CI,4.423,-7.3528,75.72,92,100,6.15,light rain,2022-04-18 18:50:07
218,Porto Belo,BR,-27.1578,-48.5531,76.15,62,100,4.5,overcast clouds,2022-04-18 18:50:08
219,Ntcheu,MW,-14.8203,34.6359,63.18,95,17,2.89,few clouds,2022-04-18 18:50:08
220,Hambantota,LK,6.1241,81.1185,79.14,100,58,2.3,broken clouds,2022-04-18 18:46:50
221,Sao Joaquim,BR,-28.2939,-49.9317,56.73,78,76,1.48,broken clouds,2022-04-18 18:50:08
222,Puerto Leguizamo,CO,-0.1934,-74.7819,78.28,94,100,0.58,overcast clouds,2022-04-18 18:50:09
223,Kosino,RU,58.4127,51.2782,30.81,98,98,2.48,overcast clouds,2022-04-18 18:50:09
224,Tammisaari,FI,59.9736,23.4339,44.91,72,15,2.57,few clouds,2022-04-18 18:50:09
225,Balkhash,KZ,46.844,74.9804,58.17,32,86,5.1,overcast clouds,2022-04-18 18:50:10
226,Aulla,IT,44.2146,9.9678,55.44,72,10,2.62,clear sky,2022-04-18 18:50:10
227,Harper,LR,4.375,-7.7169,77.18,91,100,8.68,light rain,2022-04-18 18:47:50
228,Radhanpur,IN,23.8333,71.6,85.14,54,2,12.95,clear sky,2022-04-18 18:50:11
229,Freetown,SL,8.484,-13.2299,78.39,70,100,8.01,overcast clouds,2022-04-18 18:46:01
230,Gayny,RU,60.3071,54.3241,24.82,95,7,1.59,clear sky,2022-04-18 18:50:11
231,Rio Cuarto,AR,-33.1307,-64.3499,77.67,41,0,20.71,clear sky,2022-04-18 18:50:11
232,Emba,KZ,48.8264,58.1442,57.18,50,99,4.72,overcast clouds,2022-04-18 18:50:12
233,Mattru,SL,7.6244,-11.8332,80.76,72,100,5.14,light rain,2022-04-18 18:50:12
234,El Jicaro,GT,14.9167,-89.9,94.53,24,9,4.25,clear sky,2022-04-18 18:50:12
235,Oshawa,CA,43.9001,-78.8496,51.6,46,75,23.02,broken clouds,2022-04-18 18:45:29
236,Saint-Marc,HT,19.1082,-72.6938,83.21,61,22,7.16,few clouds,2022-04-18 18:50:13
237,Belyy Yar,RU,53.6039,91.3903,46.29,46,0,8.95,light rain,2022-04-18 18:50:13
238,Constitucion,CL,-35.3333,-72.4167,63.18,66,30,12.59,scattered clouds,2022-04-18 18:46:28
239,Virginia Beach,US,36.8529,-75.978,54.05,92,100,5.01,overcast clouds,2022-04-18 18:49:39
240,Aviles,ES,43.5547,-5.9248,52.93,95,75,5.75,broken clouds,2022-04-18 18:46:33
241,Wageningen,NL,51.9667,5.6667,59.09,49,69,4.61,broken clouds,2022-04-18 18:50:14
242,Ponta Delgada,PT,37.7333,-25.6667,61.52,67,75,14.97,broken clouds,2022-04-18 18:50:14
243,Sierpc,PL,52.8568,19.6691,43.03,62,100,11.16,overcast clouds,2022-04-18 18:50:14
244,Honningsvag,NO,70.9821,25.9704,42.55,87,100,26.46,overcast clouds,2022-04-18 18:50:15
245,Tougue,GN,11.4667,-11.6,84.72,32,99,3.22,overcast clouds,2022-04-18 18:50:15
246,Lavumisa,SZ,-27.31,31.892,61.79,97,100,3.06,overcast clouds,2022-04-18 18:50:16
247,Talnakh,RU,69.4865,88.3972,20.21,95,100,10.83,light snow,2022-04-18 18:50:16
248,Jarocin,PL,51.9727,17.5026,44.13,53,100,6.15,overcast clouds,2022-04-18 18:50:17
249,Kattivakkam,IN,13.2167,80.3167,86.09,80,22,8.81,few clouds,2022-04-18 18:50:17
250,At-Bashi,KG,41.1702,75.8106,50.58,37,13,7.09,few clouds,2022-04-18 18:50:17
251,Pokhara,NP,28.2333,83.9833,73.92,29,3,7.2,clear sky,2022-04-18 18:50:18
252,Tiznit,MA,29.5833,-9.5,75.54,25,100,4.52,overcast clouds,2022-04-18 18:50:18
253,Bagotville,AU,-28.9833,153.4167,58.82,91,11,5.26,few clouds,2022-04-18 18:50:18
254,Saldanha,ZA,-33.0117,17.9442,64.45,78,0,9.82,clear sky,2022-04-18 18:50:19
255,Havelock,US,34.8791,-76.9013,66.2,96,100,24.16,heavy intensity rain,2022-04-18 18:50:19
256,Oum Hadjer,TD,13.2954,19.6966,89.49,37,99,14.03,overcast clouds,2022-04-18 18:50:19
257,Labytnangi,RU,66.6572,66.4183,21.43,93,99,5.75,overcast clouds,2022-04-18 18:50:20
258,Matagami,CA,49.7502,-77.6328,33.91,51,0,6.91,clear sky,2022-04-18 18:50:20
259,Bilma,NE,18.6853,12.9164,84.2,14,40,10.58,scattered clouds,2022-04-18 18:50:21
260,La Seyne-Sur-Mer,FR,43.0982,5.8847,59.61,70,78,3.0,broken clouds,2022-04-18 18:50:21
261,Porto Novo,BJ,6.4965,2.6036,80.42,82,100,5.59,overcast clouds,2022-04-18 18:50:21
262,Vestmannaeyjar,IS,63.4427,-20.2734,47.39,71,0,20.71,clear sky,2022-04-18 18:50:21
263,Saint-Georges,GD,12.0564,-61.7485,82.08,74,75,24.16,broken clouds,2022-04-18 18:50:22
264,Lieksa,FI,63.3167,30.0167,36.82,94,65,2.04,broken clouds,2022-04-18 18:50:22
265,Dossor,KZ,47.5272,52.9811,68.32,33,100,5.79,overcast clouds,2022-04-18 18:50:22
266,Gat,IL,31.61,34.7642,67.82,100,100,4.85,overcast clouds,2022-04-18 18:50:23
267,Tudela,ES,42.0617,-1.6045,59.9,65,1,16.04,clear sky,2022-04-18 18:50:23
268,Hvolsvollur,IS,63.7533,-20.2243,47.07,55,10,10.11,clear sky,2022-04-18 18:50:23
269,Mahibadhoo,MV,3.7833,72.9667,84.24,67,100,6.73,overcast clouds,2022-04-18 18:50:24
270,Vila Franca Do Campo,PT,37.7167,-25.4333,61.21,71,80,12.73,broken clouds,2022-04-18 18:50:24
271,Mbini,GQ,1.574,9.6134,80.55,83,100,1.28,light rain,2022-04-18 18:50:24
272,Santa Vitoria Do Palmar,BR,-33.5189,-53.3681,70.21,62,17,10.6,few clouds,2022-04-18 18:50:25
273,Naftalan,AZ,40.5067,46.825,60.22,57,2,9.57,clear sky,2022-04-18 18:50:25
274,Guane,CU,22.2025,-84.0875,91.9,36,2,3.31,clear sky,2022-04-18 18:50:25
275,Lagos,NG,6.5833,3.75,80.92,89,100,2.13,light rain,2022-04-18 18:47:38
276,Changji,CN,44.0167,87.3167,72.39,8,0,20.13,clear sky,2022-04-18 18:50:26
277,Ostrovnoy,RU,68.0531,39.5131,36.9,100,100,14.65,light rain,2022-04-18 18:50:26
278,Jaleswar,NP,26.6471,85.8008,82.47,57,0,16.08,clear sky,2022-04-18 18:50:26
279,Maragogi,BR,-9.0122,-35.2225,81.57,75,60,9.44,broken clouds,2022-04-18 18:50:27
280,Huarmey,PE,-10.0681,-78.1522,72.28,73,83,11.34,broken clouds,2022-04-18 18:50:27
281,Namibe,AO,-15.1961,12.1522,74.19,77,97,3.09,light rain,2022-04-18 18:50:27
282,Aksarka,RU,66.5606,67.7975,20.37,90,100,8.21,overcast clouds,2022-04-18 18:50:28
283,Bezhetsk,RU,57.7851,36.6965,35.28,84,1,6.02,clear sky,2022-04-18 18:50:28
284,Waldkirch,DE,48.0959,7.9637,56.26,67,2,5.19,clear sky,2022-04-18 18:50:28
285,Maceio,BR,-9.6658,-35.7353,87.24,54,20,11.5,few clouds,2022-04-18 18:48:12
286,Sao Benedito Do Rio Preto,BR,-3.3336,-43.5283,83.71,81,100,2.21,moderate rain,2022-04-18 18:50:29
287,Balkanabat,TM,39.5108,54.3671,62.64,50,1,9.15,clear sky,2022-04-18 18:50:29
288,Aquiraz,BR,-3.9014,-38.3911,86.09,85,100,7.94,overcast clouds,2022-04-18 18:50:29
289,Aksu,CN,41.1231,80.2644,61.09,14,9,5.08,clear sky,2022-04-18 18:50:30
290,Saint-Philippe,RE,-21.3585,55.7679,77.22,88,22,11.18,few clouds,2022-04-18 18:50:30
291,Rajpipla,IN,21.8667,73.5,83.17,52,0,8.75,clear sky,2022-04-18 18:50:30
292,Nuuk,GL,64.1835,-51.7216,18.21,79,100,16.11,light snow,2022-04-18 18:49:00
293,Maine-Soroa,NE,13.2114,12.0241,87.6,27,99,3.91,overcast clouds,2022-04-18 18:50:31
294,Meridian,US,43.6121,-116.3915,67.51,30,0,16.11,clear sky,2022-04-18 18:50:31
295,Passos,BR,-20.7189,-46.6097,77.25,50,12,1.83,few clouds,2022-04-18 18:50:31
296,Saint Anthony,US,45.0205,-93.218,37.0,71,100,23.02,overcast clouds,2022-04-18 18:50:32
297,Kathmandu,NP,27.7167,85.3167,68.22,77,20,3.44,mist,2022-04-18 18:50:32
298,Hamilton,US,39.1834,-84.5333,40.95,87,100,16.11,overcast clouds,2022-04-18 18:47:36
299,Iroquois Falls,CA,48.7669,-80.6831,39.15,61,100,5.35,overcast clouds,2022-04-18 18:50:32
300,Kayseri,TR,38.737,35.4968,69.82,28,75,16.11,broken clouds,2022-04-18 18:50:33
301,Poltavka,RU,54.3663,71.7632,40.6,51,64,7.25,broken clouds,2022-04-18 18:50:33
302,Oristano,IT,39.9,8.6,51.94,82,20,2.17,few clouds,2022-04-18 18:50:33
303,Staunton,US,38.1496,-79.0717,35.4,76,100,5.75,moderate rain,2022-04-18 18:50:34
304,Lagunas,PE,-5.2269,-75.6753,78.98,91,86,5.01,overcast clouds,2022-04-18 18:50:34
305,Siuna,NI,13.7332,-84.7773,95.88,28,86,4.76,overcast clouds,2022-04-18 18:50:34
306,San Francisco,US,37.7749,-122.4194,68.22,63,75,6.91,broken clouds,2022-04-18 18:46:38
307,Tucuma,BR,-0.1833,-50.05,82.87,73,35,4.85,light rain,2022-04-18 18:50:35
308,Uyovu,TZ,-3.2833,31.5258,66.6,88,93,2.06,overcast clouds,2022-04-18 18:50:35
309,Slupsk,PL,54.4641,17.0287,41.92,58,100,7.76,overcast clouds,2022-04-18 18:50:36
310,Neyveli,IN,11.536,79.4824,84.79,67,5,4.52,clear sky,2022-04-18 18:50:36
311,El Paraiso,HN,13.8667,-86.55,87.55,36,92,2.51,overcast clouds,2022-04-18 18:50:36
312,Walvis Bay,NA,-22.9575,14.5053,67.15,68,30,8.05,scattered clouds,2022-04-18 18:50:36
313,Zverinogolovskoye,RU,54.4586,64.8542,45.99,59,76,5.84,broken clouds,2022-04-18 18:50:37
314,Elat,IL,29.5581,34.9482,89.44,14,100,5.75,overcast clouds,2022-04-18 18:50:37
315,Kankon,IN,15.0167,74.0167,84.0,72,3,6.33,clear sky,2022-04-18 18:50:37
316,Havoysund,NO,70.9963,24.6622,43.03,98,100,28.23,overcast clouds,2022-04-18 18:50:38
317,Saint-Joseph,RE,-21.3667,55.6167,76.21,85,17,9.28,few clouds,2022-04-18 18:50:38
318,Mondlo,ZA,-27.983,30.7177,53.01,96,100,4.81,overcast clouds,2022-04-18 18:50:38
319,Adrar,MR,20.5022,-10.0711,87.55,11,4,8.68,clear sky,2022-04-18 18:49:31
320,Rulenge,TZ,-2.7175,30.6325,62.56,95,17,1.74,few clouds,2022-04-18 18:50:39
321,Padang,ID,-0.9492,100.3543,75.25,87,100,3.27,overcast clouds,2022-04-18 18:50:39
322,Camapua,BR,-19.5314,-54.0439,84.42,32,4,5.03,clear sky,2022-04-18 18:50:39
323,Tabuk,PH,17.4189,121.4443,73.85,91,96,2.86,overcast clouds,2022-04-18 18:50:40
324,Borovskoy,KZ,53.8,64.15,46.44,56,54,6.49,broken clouds,2022-04-18 18:50:40
325,Sukhumi,GE,43.0033,41.0153,65.79,64,100,7.94,overcast clouds,2022-04-18 18:50:02
326,Southbury,US,41.4815,-73.2132,56.68,45,0,14.97,clear sky,2022-04-18 18:50:41
327,Thompson,CA,55.7435,-97.8558,37.56,35,40,12.66,scattered clouds,2022-04-18 18:50:41
328,Katima Mulilo,NA,-17.5,24.2667,74.93,57,100,3.47,overcast clouds,2022-04-18 18:50:41
329,Vagur,FO,61.4732,-6.8119,44.74,83,100,26.33,light rain,2022-04-18 18:50:42
330,Eydhafushi,MV,5.1033,73.0708,84.31,66,98,7.23,overcast clouds,2022-04-18 18:50:42
331,Lazurne,UA,46.084,32.5295,41.7,89,100,17.78,overcast clouds,2022-04-18 18:50:43
332,Kansanshi,ZM,-12.0951,26.4273,61.5,96,15,3.71,few clouds,2022-04-18 18:50:43
333,Barcelos,PT,41.5388,-8.6151,61.84,70,12,14.54,few clouds,2022-04-18 18:48:16
334,Yar-Sale,RU,66.8333,70.8333,15.03,91,100,11.07,overcast clouds,2022-04-18 18:50:43
335,Chandler,US,33.3062,-111.8412,92.91,11,41,1.01,scattered clouds,2022-04-18 18:50:44
336,Faya,SA,18.3851,42.4509,72.12,46,53,5.03,light rain,2022-04-18 18:50:44
337,Omboue,GA,-1.5746,9.2618,79.3,90,100,5.26,light rain,2022-04-18 18:50:44
338,Nizwa,OM,22.9333,57.5333,83.05,16,0,5.3,clear sky,2022-04-18 18:49:04
339,Muktsar,IN,30.4833,74.5167,85.66,22,6,5.23,clear sky,2022-04-18 18:50:45
340,Moose Factory,CA,51.2585,-80.6094,28.4,69,0,14.97,clear sky,2022-04-18 18:50:45
341,Middleton,GB,53.55,-2.2,53.98,68,87,4.14,overcast clouds,2022-04-18 18:49:41
342,Caravelas,BR,-17.7125,-39.2481,79.11,62,16,10.2,few clouds,2022-04-18 18:50:45
343,Jay,US,44.5039,-70.2162,57.38,31,9,6.24,clear sky,2022-04-18 18:50:46
344,Bin Qirdan,TN,33.1378,11.2197,64.72,35,4,4.03,clear sky,2022-04-18 18:50:46
345,Burila Mare,RO,44.4528,22.5736,42.48,67,98,2.51,light rain,2022-04-18 18:50:46
346,Afrikanda,RU,67.4429,32.7828,34.57,100,100,3.0,overcast clouds,2022-04-18 18:50:47
347,Zawadzkie,PL,50.605,18.4847,46.99,54,100,5.95,overcast clouds,2022-04-18 18:50:47
348,Maridi,SS,4.9158,29.4742,73.04,75,17,3.18,light rain,2022-04-18 18:50:47
349,Gornopravdinsk,RU,60.05,69.9,27.72,87,55,6.82,broken clouds,2022-04-18 18:50:48
350,La Libertad,EC,-2.2333,-80.9,78.46,73,0,12.66,clear sky,2022-04-18 18:50:48
351,Porto Walter,BR,-8.2686,-72.7439,86.97,57,36,2.93,scattered clouds,2022-04-18 18:50:48
352,Opuwo,NA,-18.0607,13.84,78.19,47,100,8.32,overcast clouds,2022-04-18 18:50:49
353,Revuca,SK,48.6835,20.1173,41.86,97,95,2.17,overcast clouds,2022-04-18 18:45:56
354,Marsa Matruh,EG,31.3525,27.2453,62.8,82,40,5.75,scattered clouds,2022-04-18 18:50:49
355,Bud,US,39.447,-86.1758,42.89,79,100,14.41,overcast clouds,2022-04-18 18:50:49
356,Lauria,IT,40.0465,15.8358,43.65,69,6,7.0,clear sky,2022-04-18 18:50:50
357,San Luis,AR,-33.295,-66.3356,77.43,25,25,6.02,scattered clouds,2022-04-18 18:50:15
358,Onguday,RU,50.75,86.15,49.91,49,100,3.62,overcast clouds,2022-04-18 18:50:50
359,Wamba,NG,8.9333,8.6,77.09,79,100,7.85,moderate rain,2022-04-18 18:50:51
360,Zhanaozen,KZ,43.3,52.8,61.68,36,0,4.59,clear sky,2022-04-18 18:50:51
361,Yanam,IN,16.7333,82.2167,77.79,87,11,3.11,few clouds,2022-04-18 18:50:51
362,Boca Raton,US,26.3587,-80.0831,90.0,66,0,11.5,clear sky,2022-04-18 18:49:50
363,Ascheberg,DE,51.7833,7.6167,60.55,65,0,6.91,clear sky,2022-04-18 18:50:52
364,Pangody,RU,65.85,74.4859,24.57,87,100,16.02,overcast clouds,2022-04-18 18:49:25
365,Chemal,RU,51.4111,86.005,52.36,58,100,4.88,overcast clouds,2022-04-18 18:50:52
366,Khorramabad,IR,33.4878,48.3558,60.35,25,5,1.45,clear sky,2022-04-18 18:50:53
367,Kirya,TZ,-3.9167,37.4833,77.41,67,100,12.53,overcast clouds,2022-04-18 18:50:53
368,Banikoara,BJ,11.2985,2.4386,91.4,14,100,6.02,overcast clouds,2022-04-18 18:50:53
369,Barinitas,VE,8.7622,-70.4111,74.68,52,99,3.24,overcast clouds,2022-04-18 18:50:53
370,Dunda,TZ,-8.1167,34.25,65.66,87,72,3.91,broken clouds,2022-04-18 18:50:54
371,Mangaluru,IN,12.8667,74.8833,79.66,78,40,4.61,scattered clouds,2022-04-18 18:50:54
372,Huntsville,US,34.7304,-86.5861,56.39,73,100,12.66,overcast clouds,2022-04-18 18:50:54
373,Grand-Lahou,CI,5.1367,-5.0242,77.07,89,100,8.43,overcast clouds,2022-04-18 18:50:55
374,Zupanja,HR,45.0775,18.6975,43.29,79,17,2.21,few clouds,2022-04-18 18:50:55
375,Seara,PT,41.1818,-7.8003,58.95,71,16,6.44,few clouds,2022-04-18 18:50:55
376,Suoyarvi,RU,62.0833,32.35,35.08,96,100,3.11,overcast clouds,2022-04-18 18:50:56
377,Micheweni,TZ,-4.9667,39.8333,81.1,81,91,10.16,overcast clouds,2022-04-18 18:50:56
378,Oktyabrskoye,RU,43.0645,44.7417,55.54,76,100,8.95,overcast clouds,2022-04-18 18:50:56
379,Batetskiy,RU,58.6461,30.3027,41.85,82,100,4.41,overcast clouds,2022-04-18 18:50:57
380,Sept-Iles,CA,50.2001,-66.3821,42.06,48,20,8.05,few clouds,2022-04-18 18:46:02
381,Ostersund,SE,63.1792,14.6357,54.05,32,0,0.0,clear sky,2022-04-18 18:50:57
382,Yelniki,RU,54.6207,43.876,39.16,95,100,8.01,overcast clouds,2022-04-18 18:50:58
383,Ushtobe,KZ,45.2514,77.9838,68.45,21,100,8.1,overcast clouds,2022-04-18 18:50:58
384,Sorkjosen,NO,69.8,20.9333,48.2,61,75,11.5,broken clouds,2022-04-18 18:50:58
385,Idah,NG,7.1065,6.7342,84.4,63,100,4.79,light rain,2022-04-18 18:50:59
386,Vysha,RU,53.8477,42.3777,40.14,97,100,8.01,light rain,2022-04-18 18:50:59
387,Canutama,BR,-6.5339,-64.3831,87.69,66,72,0.69,broken clouds,2022-04-18 18:50:59
388,Aktau,KZ,43.65,51.2,54.18,61,42,11.18,scattered clouds,2022-04-18 18:51:00
389,Brewster,US,41.3973,-73.6171,54.72,45,0,11.5,clear sky,2022-04-18 18:51:00
390,Pitkyaranta,RU,61.5734,31.4792,34.79,99,97,4.23,overcast clouds,2022-04-18 18:51:00
391,Santa Maria,BR,-29.6842,-53.8069,76.3,53,40,6.91,scattered clouds,2022-04-18 18:51:01
392,Humaita,BR,-7.5061,-63.0208,83.53,82,51,1.97,broken clouds,2022-04-18 18:51:01
393,Pinyug,RU,60.251,47.7842,27.54,98,35,2.84,scattered clouds,2022-04-18 18:51:01
394,Krasnovishersk,RU,60.4078,57.082,25.68,95,94,2.3,overcast clouds,2022-04-18 18:51:02
395,Garmsar,IR,35.2182,52.3409,65.34,24,0,5.12,clear sky,2022-04-18 18:51:02
396,Yuryuzan,RU,54.8633,58.4219,44.51,91,100,4.61,overcast clouds,2022-04-18 18:51:03
397,Usakos,NA,-22.0,15.6,79.74,24,77,7.0,broken clouds,2022-04-18 18:51:03
398,Altay,CN,47.8667,88.1167,49.82,31,100,9.89,overcast clouds,2022-04-18 18:51:04
399,Hermagor,AT,46.6272,13.3672,42.8,80,99,1.52,overcast clouds,2022-04-18 18:51:04
400,Lenger,KZ,42.183,69.8839,63.84,77,100,4.32,light rain,2022-04-18 18:51:05
401,Dwarka,IN,22.2394,68.9678,80.62,78,5,12.08,clear sky,2022-04-18 18:51:05
402,Chicama,PE,-7.8447,-79.1469,63.14,61,51,10.63,broken clouds,2022-04-18 18:51:05
403,Khowst,AF,33.3833,69.8833,69.4,39,97,6.22,overcast clouds,2022-04-18 18:51:06
404,Najran,SA,17.4924,44.1277,83.05,19,0,3.76,clear sky,2022-04-18 18:51:06
405,Tete,MZ,-16.1564,33.5867,78.89,73,20,4.61,few clouds,2022-04-18 18:51:07
406,Tulle,FR,45.3333,1.8333,49.57,76,84,1.57,broken clouds,2022-04-18 18:51:07
407,Koslan,RU,63.4564,48.8989,32.31,98,100,3.18,overcast clouds,2022-04-18 18:51:07
408,Maniwaki,CA,46.3834,-75.966,46.78,29,99,5.75,overcast clouds,2022-04-18 18:48:57
409,Aktash,RU,50.3,87.7333,29.52,62,100,4.9,overcast clouds,2022-04-18 18:51:08
410,Koygorodok,RU,60.445,50.9968,27.9,94,90,2.06,overcast clouds,2022-04-18 18:51:08
411,Sao Francisco,BR,-15.9486,-44.8644,83.21,47,100,6.96,light rain,2022-04-18 18:51:09
412,Trebinje,BA,42.7119,18.3442,53.96,24,0,20.71,clear sky,2022-04-18 18:51:09
413,Atar,MR,20.5169,-13.0499,95.9,10,80,7.83,broken clouds,2022-04-18 18:51:10
414,Putina,PE,-15.4667,-69.4333,49.17,40,0,5.73,clear sky,2022-04-18 18:51:10
415,Shache,CN,38.4167,77.2406,62.02,18,0,5.79,clear sky,2022-04-18 18:51:10
416,Mansa,IN,29.9833,75.3833,88.59,19,91,9.98,overcast clouds,2022-04-18 18:51:11
417,Luderitz,NA,-26.6481,15.1594,75.85,40,1,9.8,clear sky,2022-04-18 18:51:11
418,Milyutinskaya,RU,48.6279,41.6679,61.86,54,87,15.12,overcast clouds,2022-04-18 18:51:11
419,Cassia,BR,-20.5831,-46.9219,77.68,53,13,4.65,few clouds,2022-04-18 18:51:12
420,Muzhi,RU,65.3667,64.6667,30.18,85,87,11.27,overcast clouds,2022-04-18 18:51:12
421,Qasigiannguit,GL,68.8193,-51.1922,14.32,92,100,12.93,light snow,2022-04-18 18:51:12
422,Saint-Pierre,RE,-21.3393,55.4781,77.29,85,40,4.61,scattered clouds,2022-04-18 18:51:13
423,Sapele,NG,5.8941,5.6767,77.76,88,93,5.84,light rain,2022-04-18 18:51:13
424,Marsaxlokk,MT,35.8419,14.5431,59.07,76,7,21.68,clear sky,2022-04-18 18:51:13
425,Berbera,SO,10.4396,45.0143,83.7,79,5,6.35,clear sky,2022-04-18 18:51:14
426,Novoomskiy,RU,54.8415,73.3017,37.42,38,0,8.95,clear sky,2022-04-18 18:51:14
427,Mumford,GH,5.2618,-0.759,77.13,87,100,4.27,overcast clouds,2022-04-18 18:51:14
428,Conceicao Do Araguaia,BR,-8.2578,-49.2647,86.16,66,70,1.54,broken clouds,2022-04-18 18:51:15
429,Jiwani,PK,25.05,61.7417,80.2,91,84,7.81,broken clouds,2022-04-18 18:51:15
430,Kendal,GB,54.3268,-2.7476,48.83,80,7,5.48,clear sky,2022-04-18 18:51:15
431,Pangnirtung,CA,66.1451,-65.7125,-4.0,71,75,12.66,broken clouds,2022-04-18 18:51:16
432,Dzhankoy,UA,45.7167,34.4,42.94,87,92,11.92,overcast clouds,2022-04-18 18:51:16
433,Nioro,GM,13.35,-15.75,89.2,29,9,13.15,clear sky,2022-04-18 18:51:16
434,Duku,NG,11.2361,4.9073,90.28,37,100,7.96,overcast clouds,2022-04-18 18:51:17
435,Cap Malheureux,MU,-19.9842,57.6142,79.47,87,100,1.99,overcast clouds,2022-04-18 18:51:17
436,Port-Cartier,CA,50.0334,-66.8654,41.76,56,4,4.16,clear sky,2022-04-18 18:51:18
437,Praia,CV,14.9215,-23.5087,75.74,64,20,21.85,few clouds,2022-04-18 18:51:18
438,Cesvaine,LV,56.9667,26.3167,38.8,70,1,5.46,clear sky,2022-04-18 18:51:18
439,Suzun,RU,53.7841,82.3116,43.16,77,100,8.25,overcast clouds,2022-04-18 18:51:19
440,Nadym,RU,65.5333,72.5167,30.11,96,100,16.49,light snow,2022-04-18 18:47:26
441,Salzkotten,DE,51.6717,8.6009,56.77,44,0,4.61,clear sky,2022-04-18 18:51:19
442,Haren,DE,52.7833,7.2333,59.18,31,0,3.44,clear sky,2022-04-18 18:51:20
443,Malatya,TR,38.5,38.0,55.45,44,75,2.3,broken clouds,2022-04-18 18:51:20
444,Ryazhsk,RU,53.7038,40.1109,39.42,95,100,8.16,light rain,2022-04-18 18:51:21
445,Pala,TD,9.3642,14.9046,74.82,80,100,9.48,heavy intensity rain,2022-04-18 18:51:21
446,Rocha,UY,-34.4833,-54.3333,71.8,51,71,9.71,broken clouds,2022-04-18 18:50:26
447,Albany,US,42.6001,-73.9662,58.59,28,100,5.99,overcast clouds,2022-04-18 18:49:31
448,Irgakly,RU,44.3611,44.7556,52.66,76,6,8.86,clear sky,2022-04-18 18:51:22
449,Barra Do Garcas,BR,-15.89,-52.2567,93.78,38,40,3.44,scattered clouds,2022-04-18 18:48:40
450,Sesheke,ZM,-17.4759,24.2968,74.52,58,97,3.69,overcast clouds,2022-04-18 18:51:22
451,Julio De Castilhos,BR,-29.2269,-53.6817,70.29,61,66,3.36,broken clouds,2022-04-18 18:46:38
452,Akureyri,IS,65.6835,-18.0878,39.13,87,75,12.66,broken clouds,2022-04-18 18:51:23
453,Bradford,GB,53.7939,-1.7521,55.24,63,20,10.36,few clouds,2022-04-18 18:51:23
454,Saint-Francois,FR,46.4154,3.9054,58.44,47,0,2.3,clear sky,2022-04-18 18:51:23
455,Puerto Baquerizo Moreno,EC,-0.9,-89.6,79.79,78,75,8.05,light intensity drizzle,2022-04-18 18:51:24
456,Rabo De Peixe,PT,37.8,-25.5833,60.31,67,75,14.97,broken clouds,2022-04-18 18:46:25
457,Angoche,MZ,-16.2325,39.9086,79.16,71,0,7.92,clear sky,2022-04-18 18:51:24
458,Igarka,RU,67.4667,86.5833,20.86,95,100,16.33,snow,2022-04-18 18:51:25
459,Itaqui,BR,-29.1253,-56.5531,74.7,53,0,4.41,clear sky,2022-04-18 18:51:25
460,Manakara,MG,-22.1333,48.0167,74.3,85,41,5.12,scattered clouds,2022-04-18 18:51:25
461,Markala,ML,13.7021,-6.0659,91.62,11,92,7.92,overcast clouds,2022-04-18 18:51:26
462,Mabaruma,GY,8.2,-59.7833,86.0,74,75,9.22,broken clouds,2022-04-18 18:51:26
463,Astana,KZ,51.1801,71.446,42.75,93,100,6.71,mist,2022-04-18 18:50:56
464,Sulingen,DE,52.6833,8.8,59.05,62,93,2.48,overcast clouds,2022-04-18 18:51:27
465,Naryan-Mar,RU,67.6713,53.087,27.43,96,100,7.58,overcast clouds,2022-04-18 18:51:27
466,Amalapuram,IN,16.5833,82.0167,79.0,83,2,2.42,clear sky,2022-04-18 18:51:27
467,Krasnoselkup,RU,65.7,82.4667,27.97,95,100,22.62,light snow,2022-04-18 18:51:28
468,Itarema,BR,-2.9248,-39.9167,82.51,77,92,6.67,overcast clouds,2022-04-18 18:51:28
469,Mirabad,AF,30.4362,61.8383,65.14,56,30,24.63,scattered clouds,2022-04-18 18:51:28
470,Ferry Pass,US,30.5102,-87.2125,78.78,69,75,11.5,broken clouds,2022-04-18 18:51:29
471,Marystown,CA,47.1666,-55.1483,40.82,70,47,29.06,scattered clouds,2022-04-18 18:51:29
472,Margate,GB,51.3813,1.3862,56.1,69,100,3.0,overcast clouds,2022-04-18 18:51:30
473,Eyl,SO,7.9803,49.8164,82.45,80,1,7.29,clear sky,2022-04-18 18:51:30
474,Gander,CA,48.9682,-54.5906,35.73,93,100,28.77,overcast clouds,2022-04-18 18:51:30
475,Takoradi,GH,4.8845,-1.7554,79.34,80,100,3.74,overcast clouds,2022-04-18 18:48:15
476,Black River,JM,18.0264,-77.8487,82.15,71,25,6.06,scattered clouds,2022-04-18 18:51:31
477,Umm Lajj,SA,25.0213,37.2685,85.28,38,100,2.1,overcast clouds,2022-04-18 18:51:31
478,Malangali,TZ,-8.5667,34.85,63.37,93,24,9.89,few clouds,2022-04-18 18:51:32
479,Peabiru,BR,-23.9128,-52.3431,73.26,57,5,3.44,clear sky,2022-04-18 18:51:32
480,Abay,KZ,49.6311,72.8539,44.98,76,100,20.74,overcast clouds,2022-04-18 18:51:32
481,Blyth,GB,55.1271,-1.5086,53.47,60,20,11.5,few clouds,2022-04-18 18:51:32
482,Torbat-E Jam,IR,35.244,60.6225,50.52,70,100,15.73,overcast clouds,2022-04-18 18:51:33
483,El Alto,PE,-4.2714,-81.2147,78.46,71,92,11.03,overcast clouds,2022-04-18 18:51:33
484,Bhera,PK,32.4832,72.9097,87.67,14,100,3.85,overcast clouds,2022-04-18 18:51:33
485,Raudeberg,NO,61.9875,5.1352,50.67,65,0,6.87,clear sky,2022-04-18 18:51:34
486,Khem Karan,IN,31.1428,74.5667,89.69,17,13,7.18,few clouds,2022-04-18 18:51:34
487,Sinnamary,GF,5.3833,-52.95,80.11,82,100,9.31,light rain,2022-04-18 18:51:35
488,Grand Gaube,MU,-20.0064,57.6608,79.38,87,68,1.99,broken clouds,2022-04-18 18:51:35
489,Sambava,MG,-14.2667,50.1667,76.96,87,62,12.06,broken clouds,2022-04-18 18:51:35
490,Pervomayskiy,RU,53.2485,40.2871,41.41,95,100,11.14,light rain,2022-04-18 18:51:36
491,Coquimbo,CL,-29.9533,-71.3436,61.25,75,13,7.11,few clouds,2022-04-18 18:51:36
492,Pitimbu,BR,-7.4706,-34.8086,88.39,68,87,10.63,overcast clouds,2022-04-18 18:51:36
493,Alekseyevka,RU,50.6309,38.6903,54.21,85,100,10.96,overcast clouds,2022-04-18 18:51:37
494,Wloszczowa,PL,50.8526,19.9659,45.18,55,100,3.11,overcast clouds,2022-04-18 18:51:37
495,Nakasongola,UG,1.3089,32.4564,71.19,72,20,4.45,few clouds,2022-04-18 18:51:37
496,Aksay,RU,47.26,39.87,62.82,73,100,9.89,light rain,2022-04-18 18:51:38
497,Puerto Narino,CO,-3.7703,-70.3831,78.75,80,100,1.48,overcast clouds,2022-04-18 18:51:38
498,Garissa,KE,-0.4536,39.6401,84.72,60,100,17.11,overcast clouds,2022-04-18 18:48:07
499,Vihari,PK,30.0333,72.35,86.18,29,5,6.64,clear sky,2022-04-18 18:51:38
500,Alto Longa,BR,-5.2511,-42.2103,84.43,71,97,3.33,overcast clouds,2022-04-18 18:51:39
501,Rosetta,EG,31.4044,30.4164,62.82,79,100,6.96,overcast clouds,2022-04-18 18:51:39
502,Nueva Loja,EC,0.0847,-76.8828,77.02,83,75,9.22,light rain,2022-04-18 18:51:39
503,Tera,NE,14.0078,0.7531,91.36,10,97,5.7,overcast clouds,2022-04-18 18:51:40
504,Plettenberg Bay,ZA,-34.0527,23.3716,61.52,91,12,4.74,few clouds,2022-04-18 18:51:40
505,Sakakah,SA,29.9697,40.2064,81.97,11,64,10.58,broken clouds,2022-04-18 18:51:41
506,Terenos,BR,-20.4422,-54.8603,83.91,36,0,6.91,clear sky,2022-04-18 18:51:41
507,Riberalta,BO,-10.9833,-66.1,82.6,61,75,18.41,broken clouds,2022-04-18 18:47:14
508,Antofagasta,CL,-23.65,-70.4,67.23,63,0,7.25,clear sky,2022-04-18 18:51:41
509,Japura,ID,-0.3167,102.35,73.56,97,100,1.81,overcast clouds,2022-04-18 18:51:42
510,Bonthe,SL,7.5264,-12.505,80.13,71,100,10.49,overcast clouds,2022-04-18 18:51:42
511,Bajil,YE,15.0584,43.2851,90.0,43,87,3.6,overcast clouds,2022-04-18 18:51:42
512,Saint-Augustin,CA,51.226,-58.6502,32.86,72,6,24.81,clear sky,2022-04-18 18:51:42
513,Nuqui,CO,5.7125,-77.2708,81.39,80,100,9.1,light rain,2022-04-18 18:51:43
514,Rio Verde De Mato Grosso,BR,-18.9181,-54.8442,86.22,32,4,1.57,clear sky,2022-04-18 18:51:43
515,Jawar,IN,23.0,76.5,87.19,16,5,6.13,clear sky,2022-04-18 18:51:43
516,Akyab,MM,20.15,92.9,81.5,83,0,5.91,clear sky,2022-04-18 18:51:44
517,Saurimo,AO,-9.6608,20.3916,67.33,94,96,3.65,moderate rain,2022-04-18 18:51:44
518,Beisfjord,NO,68.3751,17.5988,44.04,98,100,4.09,overcast clouds,2022-04-18 18:51:44
519,Stupava,SK,48.2747,17.0317,50.49,45,0,6.91,clear sky,2022-04-18 18:51:45
520,Ancud,CL,-41.8697,-73.8203,54.23,69,86,6.11,overcast clouds,2022-04-18 18:51:45
521,Prestea,GH,5.4327,-2.1428,75.96,93,100,2.71,overcast clouds,2022-04-18 18:51:45
522,Bardiyah,LY,31.7561,25.0865,61.81,72,29,8.75,scattered clouds,2022-04-18 18:51:46
523,Dembi Dolo,ET,8.5333,34.8,63.45,79,20,3.53,few clouds,2022-04-18 18:51:46
524,Dudinka,RU,69.4058,86.1778,20.62,94,100,11.21,light snow,2022-04-18 18:51:46
525,Pachino,IT,36.7186,15.0907,54.88,71,27,8.5,scattered clouds,2022-04-18 18:51:46
526,Vozhega,RU,60.4725,40.2213,33.62,100,100,1.63,overcast clouds,2022-04-18 18:51:47
527,Karachi,PK,24.9056,67.0822,82.22,74,1,9.22,smoke,2022-04-18 18:48:13
528,Diamantino,BR,-14.4086,-56.4461,83.53,45,5,5.99,clear sky,2022-04-18 18:51:07
529,Yarmouth,US,41.7057,-70.2286,54.97,58,0,11.5,clear sky,2022-04-18 18:51:47
530,Lapy,PL,52.9911,22.8842,41.25,78,100,8.7,overcast clouds,2022-04-18 18:51:48
531,Wajir,KE,1.7471,40.0573,85.96,58,75,9.22,broken clouds,2022-04-18 18:51:48
532,Aswan,EG,24.0934,32.907,94.3,8,0,4.61,clear sky,2022-04-18 18:51:48
533,Iquitos,PE,-3.7481,-73.2472,77.04,100,75,8.05,broken clouds,2022-04-18 18:48:05
534,Hualmay,PE,-11.0964,-77.6139,71.22,73,95,10.25,overcast clouds,2022-04-18 18:51:49
535,Husavik,IS,66.0449,-17.3389,35.35,97,100,9.46,overcast clouds,2022-04-18 18:49:41
536,Port Blair,IN,11.6667,92.75,80.64,83,20,0.0,mist,2022-04-18 18:51:49
537,Daud Khel,PK,32.875,71.5701,85.28,24,90,2.89,overcast clouds,2022-04-18 18:51:50
538,Jardim,BR,-21.4803,-56.1381,85.37,35,0,2.3,clear sky,2022-04-18 18:47:16
539,Lafiagi,NG,8.8667,5.4167,87.8,49,16,4.85,light rain,2022-04-18 18:51:50
540,Rumonge,BI,-3.9736,29.4386,72.21,84,21,4.0,light rain,2022-04-18 18:51:50
541,Krasnoyarskiy,RU,51.965,59.8967,53.33,60,92,6.71,overcast clouds,2022-04-18 18:51:51
542,Sabzevar,IR,36.2126,57.6819,51.08,87,75,13.8,light intensity shower rain,2022-04-18 18:51:51
543,Volksrust,ZA,-27.3654,29.8818,47.53,96,100,5.75,light rain,2022-04-18 18:51:51
544,Swakopmund,NA,-22.6833,14.5333,67.05,87,64,3.0,broken clouds,2022-04-18 18:51:52
545,Tanout,NE,14.9709,8.8879,85.68,14,14,2.15,few clouds,2022-04-18 18:51:52
546,Kimberley,ZA,-28.7323,24.7623,55.09,82,0,6.91,clear sky,2022-04-18 18:51:52
547,Omegna,IT,45.8798,8.408,59.83,45,6,1.23,clear sky,2022-04-18 18:51:53
548,Januaria,BR,-15.4833,-44.3667,82.42,49,95,8.3,overcast clouds,2022-04-18 18:51:53
549,Wladyslawowo,PL,54.7909,18.4009,45.93,68,100,10.0,overcast clouds,2022-04-18 18:51:53
550,Sistranda,NO,63.7256,8.834,57.16,74,0,8.95,clear sky,2022-04-18 18:51:53
551,Tessalit,ML,20.1986,1.0114,82.26,10,0,8.1,clear sky,2022-04-18 18:51:55
552,Atlantic City,US,39.3643,-74.4229,50.02,66,20,16.11,few clouds,2022-04-18 18:51:55
553,Tucuman,AR,-26.8241,-65.2226,77.0,50,40,5.75,scattered clouds,2022-04-18 18:51:55
554,Roald,NO,62.5833,6.1333,54.52,71,0,1.14,clear sky,2022-04-18 18:51:56
555,Gualaquiza,EC,-3.4,-78.55,63.46,99,100,0.29,moderate rain,2022-04-18 18:51:56
556,Odweyne,SO,9.4092,45.064,79.61,56,3,11.79,clear sky,2022-04-18 18:51:56
557,Golakganj,IN,26.1,89.8333,75.02,79,0,9.8,clear sky,2022-04-18 18:51:57
558,Kulykivka,UA,51.3735,31.6466,37.62,84,100,6.55,overcast clouds,2022-04-18 18:51:58
559,Abu Dhabi,AE,24.4667,54.3667,80.62,43,0,6.91,clear sky,2022-04-18 18:51:59
560,Hit,IQ,33.6416,42.8251,78.21,11,2,3.89,clear sky,2022-04-18 18:51:59
561,Mukono,UG,0.3533,32.7553,74.95,79,73,3.18,broken clouds,2022-04-18 18:52:00
562,Klobuck,PL,50.9008,18.9367,43.45,54,100,5.61,overcast clouds,2022-04-18 18:52:00
563,La Paz,BO,-16.5,-68.15,64.38,14,20,10.36,few clouds,2022-04-18 18:50:07
564,Aripuana,BR,-9.1667,-60.6333,81.73,84,98,2.77,overcast clouds,2022-04-18 18:52:01
565,Lima,PE,-12.0432,-77.0282,68.4,70,20,6.91,fog,2022-04-18 18:50:24
566,Caetite,BR,-14.0694,-42.475,71.76,74,87,10.85,overcast clouds,2022-04-18 18:52:01
567,Joensuu,FI,62.6012,29.7632,39.69,77,0,1.14,clear sky,2022-04-18 18:52:02
568,Bousse,BF,12.6606,-1.8922,93.97,11,86,5.1,overcast clouds,2022-04-18 18:52:02
569,Olinda,BR,-8.0089,-34.8553,85.73,62,20,9.22,few clouds,2022-04-18 18:50:38
570,Awjilah,LY,29.1081,21.2869,69.28,40,0,9.66,clear sky,2022-04-18 18:52:03
571,Palm Valley,US,30.1775,-81.3876,84.13,64,100,8.37,overcast clouds,2022-04-18 18:52:03
572,Tokmak,UA,47.2514,35.7058,46.09,94,75,11.03,broken clouds,2022-04-18 18:52:04
573,Jumla,NP,29.2747,82.1838,50.16,45,0,4.25,clear sky,2022-04-18 18:52:04
574,Berlevag,NO,70.8578,29.0864,40.8,96,100,26.57,overcast clouds,2022-04-18 18:52:05
575,Vila Do Maio,CV,15.1333,-23.2167,75.99,79,7,14.67,clear sky,2022-04-18 18:52:05
576,Presidencia Roque Saenz Pena,AR,-26.7852,-60.4388,77.47,41,0,3.96,clear sky,2022-04-18 18:52:05
577,Quelimane,MZ,-17.8786,36.8883,78.75,89,20,8.05,few clouds,2022-04-18 18:52:06
578,Tromso,NO,69.6496,18.957,42.82,81,75,14.97,broken clouds,2022-04-18 18:52:06
579,Hurghada,EG,27.2574,33.8129,80.64,39,0,10.36,clear sky,2022-04-18 18:48:53
580,Bristol,US,41.8334,-71.1662,60.04,45,0,11.99,clear sky,2022-04-18 18:51:52
581,Bubaque,GW,11.2833,-15.8333,75.72,75,14,12.5,few clouds,2022-04-18 18:52:07
582,Kalmunai,LK,7.4167,81.8167,81.81,76,98,1.48,overcast clouds,2022-04-18 18:50:52
583,Olafsvik,IS,64.8945,-23.7142,42.33,64,51,7.7,broken clouds,2022-04-18 18:52:07
584,Zabid,YE,14.1951,43.3152,90.7,32,99,15.3,overcast clouds,2022-04-18 18:52:07
585,Kita,ML,13.0349,-9.4895,95.5,10,77,5.39,broken clouds,2022-04-18 18:52:08
586,Luz,BR,-19.8014,-45.6856,80.47,43,85,1.81,overcast clouds,2022-04-18 18:52:08
587,Yenagoa,NG,4.9247,6.2642,77.31,90,100,6.26,overcast clouds,2022-04-18 18:52:08
588,Sherbrooke,CA,45.4001,-71.8991,48.78,35,0,6.91,clear sky,2022-04-18 18:50:09
589,Mehriz,IR,31.5917,54.4318,59.5,21,0,3.33,clear sky,2022-04-18 18:52:09
590,Chirongui,YT,-12.9319,45.1483,82.33,76,100,3.8,overcast clouds,2022-04-18 18:52:09
591,Luanda,AO,-8.8368,13.2343,78.17,90,100,10.29,overcast clouds,2022-04-18 18:49:58
592,Peno,RU,56.9262,32.7426,31.41,93,26,4.72,scattered clouds,2022-04-18 18:52:10
593,Ocana,CO,8.2377,-73.356,67.89,84,100,1.36,overcast clouds,2022-04-18 18:48:56
594,Axim,GH,4.8699,-2.2405,77.95,88,100,7.74,light rain,2022-04-18 18:52:10
595,Atbasar,KZ,51.8,68.3333,45.19,56,10,6.51,clear sky,2022-04-18 18:52:10
596,Susurluk,TR,39.9136,28.1578,47.84,95,100,4.88,overcast clouds,2022-04-18 18:52:11
597,Manono,CD,-7.3,27.4167,74.26,79,7,4.94,clear sky,2022-04-18 18:52:12
598,Sarankhola,BD,22.3082,89.7897,78.89,91,32,4.03,scattered clouds,2022-04-18 18:52:12
599,Alakurtti,RU,66.9672,30.3491,36.68,98,100,3.09,light rain,2022-04-18 18:52:12
600,Mazamari,PE,-11.3258,-74.5308,84.69,56,84,2.44,broken clouds,2022-04-18 18:52:13
601,Salinopolis,BR,-0.6136,-47.3561,82.38,78,100,8.19,overcast clouds,2022-04-18 18:52:13
602,Illapel,CL,-31.6308,-71.1653,74.07,40,0,7.02,clear sky,2022-04-18 18:52:13
603,Stepnyak,KZ,52.8339,70.7803,40.91,60,42,7.29,scattered clouds,2022-04-18 18:52:14
604,Anloga,GH,5.7947,0.8973,79.12,78,100,6.53,overcast clouds,2022-04-18 18:52:14
605,Krasnoyarka,RU,55.3333,73.1167,37.35,56,13,8.3,few clouds,2022-04-18 18:52:14
606,Umea,SE,63.8284,20.2597,37.33,87,0,3.44,clear sky,2022-04-18 18:52:14
607,Chingirlau,KZ,51.095,54.0814,58.37,54,100,7.56,overcast clouds,2022-04-18 18:52:15
608,Palaikastron,GR,35.2,26.25,58.73,82,57,2.51,broken clouds,2022-04-18 18:52:15
609,Hasanpur,IN,28.7167,78.2833,87.13,11,0,8.01,clear sky,2022-04-18 18:52:15
610,Beyneu,KZ,45.3167,55.2,66.56,32,24,9.04,few clouds,2022-04-18 18:52:16
611,Mangrol,IN,21.1167,70.1167,80.78,69,0,11.56,clear sky,2022-04-18 18:52:17
612,Le Port,RE,-20.9373,55.2919,78.76,82,7,5.26,clear sky,2022-04-18 18:52:17
613,Leticia,CO,-4.2153,-69.9406,78.85,89,75,6.91,broken clouds,2022-04-18 18:52:18
614,Dakoro,NE,14.5106,6.765,94.51,9,100,6.62,overcast clouds,2022-04-18 18:52:18
615,Marienburg,PL,54.0359,19.0266,43.57,71,100,8.37,overcast clouds,2022-04-18 18:52:19
616,Terra Santa,BR,-2.1042,-56.4869,85.53,66,100,2.73,overcast clouds,2022-04-18 18:52:19
617,Dabhoi,IN,22.1833,73.4333,83.28,51,0,9.95,clear sky,2022-04-18 18:52:20
618,Troitsk,RU,54.0979,61.5773,49.78,68,91,4.9,overcast clouds,2022-04-18 18:52:20
619,Laela,TZ,-8.5667,32.05,60.85,96,98,3.87,light rain,2022-04-18 18:52:21
620,Bogorodskoye,RU,56.55,37.8833,36.25,71,72,5.1,broken clouds,2022-04-18 18:52:21
621,Killybegs,IE,54.6333,-8.45,47.91,78,100,11.99,overcast clouds,2022-04-18 18:52:22
622,Mao,ES,39.8885,4.2658,57.76,82,0,4.61,clear sky,2022-04-18 18:52:22
623,Sokoto,NG,13.0609,5.239,91.45,13,99,9.28,overcast clouds,2022-04-18 18:52:23
624,Visnes,NO,59.3556,5.2242,54.82,35,0,16.11,clear sky,2022-04-18 18:52:23
625,Paralimni,CY,35.0375,33.9833,67.12,77,100,8.01,light rain,2022-04-18 18:52:24
626,Pahalgam,IN,34.0333,75.3333,43.75,55,11,10.69,few clouds,2022-04-18 18:52:24
627,Rome,US,34.257,-85.1647,63.3,74,100,10.36,overcast clouds,2022-04-18 18:48:56
628,Soyo,AO,-6.1349,12.3689,79.32,90,83,6.96,broken clouds,2022-04-18 18:52:24
629,Redcliffe,AU,-27.2307,153.0973,64.42,93,0,6.91,clear sky,2022-04-18 18:47:45
630,Oussouye,SN,12.485,-16.5469,86.18,58,54,13.13,broken clouds,2022-04-18 18:52:25
631,Villamontes,BO,-21.25,-63.5,84.7,30,0,5.57,clear sky,2022-04-18 18:52:25
632,Khaniotis,GR,39.9991,23.58,47.86,80,100,9.13,overcast clouds,2022-04-18 18:52:26
633,Saint-Ambroise,CA,48.5501,-71.3324,45.14,48,17,3.44,few clouds,2022-04-18 18:52:26
634,Cashel,IE,52.5158,-7.8856,48.9,81,15,8.48,few clouds,2022-04-18 18:52:26
635,Sangueya,GN,10.7,-14.3667,80.65,56,43,6.98,scattered clouds,2022-04-18 18:52:27
636,Gandai,IN,21.6667,81.1,88.2,15,3,4.79,clear sky,2022-04-18 18:52:27
637,Lohja,FI,60.2486,24.0653,45.37,84,34,2.39,scattered clouds,2022-04-18 18:52:28
638,Cotonou,BJ,6.3654,2.4183,80.58,78,20,3.44,few clouds,2022-04-18 18:49:15
639,Lucapa,AO,-8.4192,20.7447,69.66,90,70,3.02,broken clouds,2022-04-18 18:52:28
640,Zaragoza,ES,41.6561,-0.8773,64.85,47,0,17.27,clear sky,2022-04-18 18:50:56
641,Chukhloma,RU,58.7525,42.6825,34.61,80,100,1.21,overcast clouds,2022-04-18 18:52:29
642,Charlestown,AU,-32.95,151.6667,63.82,95,100,1.01,overcast clouds,2022-04-18 18:52:29
643,Birjand,IR,32.8663,59.2211,50.47,62,40,6.91,scattered clouds,2022-04-18 18:52:30
644,Lokosovo,RU,61.1333,74.8167,31.21,89,93,12.19,overcast clouds,2022-04-18 18:52:30
645,Khujand,TJ,40.2853,69.6279,67.28,59,40,17.9,light rain,2022-04-18 18:52:30
646,Nicoya,CR,10.1483,-85.452,96.26,33,100,0.47,overcast clouds,2022-04-18 18:52:31
647,Kikuyu,KE,-1.2458,36.6633,62.69,94,75,0.0,light rain,2022-04-18 18:52:31
648,Taltal,CL,-25.4,-70.4833,64.31,71,12,4.09,few clouds,2022-04-18 18:47:50
649,Lesnoy,RU,57.6198,63.0784,37.69,87,100,4.32,overcast clouds,2022-04-18 18:52:32
650,Puerto Guzman,CO,0.9703,-76.5858,75.06,91,100,1.45,heavy intensity rain,2022-04-18 18:52:32
651,Anaimalai,IN,10.5833,76.9333,76.71,92,25,7.7,scattered clouds,2022-04-18 18:52:32
652,Bosaso,SO,11.2842,49.1816,84.38,68,1,1.1,clear sky,2022-04-18 18:52:33
653,Ramanathapuram,IN,9.3833,78.8333,86.43,70,40,10.71,scattered clouds,2022-04-18 18:52:33
654,Sao Felix Do Xingu,BR,-6.6447,-51.995,82.74,84,99,1.19,overcast clouds,2022-04-18 18:52:33
655,Qaqortoq,GL,60.7167,-46.0333,39.11,52,100,5.3,overcast clouds,2022-04-18 18:52:34
656,Lucea,JM,18.451,-78.1736,84.06,68,20,3.02,few clouds,2022-04-18 18:52:34
657,Khash,IR,28.2211,61.2158,64.33,34,0,5.03,clear sky,2022-04-18 18:52:35
658,Road Town,VG,18.4167,-64.6167,84.24,61,40,14.97,scattered clouds,2022-04-18 18:48:54
659,Caucaia,BR,-3.7361,-38.6531,85.95,74,40,10.36,scattered clouds,2022-04-18 18:52:17
660,Nador,MA,35.174,-2.9287,69.87,77,0,1.14,clear sky,2022-04-18 18:52:35
661,Trairi,BR,-3.2778,-39.2689,82.06,80,100,6.31,overcast clouds,2022-04-18 18:52:36
662,Liverpool,GB,53.4106,-2.9779,54.28,67,40,4.61,scattered clouds,2022-04-18 18:50:40
663,Puerto Colombia,CO,10.9878,-74.9547,78.89,76,27,12.26,scattered clouds,2022-04-18 18:47:42
664,Nadudvar,HU,47.4167,21.1667,44.82,56,74,8.46,broken clouds,2022-04-18 18:52:36
665,Paracuru,BR,-3.41,-39.0306,83.1,79,100,7.27,overcast clouds,2022-04-18 18:52:36
666,Zhezkazgan,KZ,47.8043,67.7144,51.89,73,75,19.51,broken clouds,2022-04-18 18:52:37
667,Kargasok,RU,59.0556,80.8572,28.49,80,61,7.23,broken clouds,2022-04-18 18:52:37
668,Nisia Floresta,BR,-6.0911,-35.2086,86.81,69,100,10.02,overcast clouds,2022-04-18 18:52:37
669,Oppdal,NO,62.5943,9.6912,35.76,81,23,7.43,few clouds,2022-04-18 18:52:38
670,Sisimiut,GL,66.9395,-53.6735,14.27,76,100,11.07,light snow,2022-04-18 18:52:38
671,San Andres,CO,12.5847,-81.7006,86.02,70,20,8.05,few clouds,2022-04-18 18:52:38
672,Yenotayevka,RU,47.2456,47.0281,57.27,54,22,18.57,few clouds,2022-04-18 18:52:39
673,Naifaru,MV,5.4444,73.3657,84.11,68,88,7.11,overcast clouds,2022-04-18 18:52:39
674,Floriano,BR,-6.7669,-43.0225,85.42,71,97,1.23,overcast clouds,2022-04-18 18:52:39
675,Deder,ET,9.3167,41.45,63.64,46,14,3.91,few clouds,2022-04-18 18:52:39
676,Kralendijk,BQ,12.15,-68.2667,84.18,70,75,20.71,broken clouds,2022-04-18 18:52:40
677,Mestia,GE,43.0458,42.7278,48.06,80,99,2.64,overcast clouds,2022-04-18 18:52:40
678,Pavlovskiy,RU,57.8424,54.8436,34.52,99,100,4.83,overcast clouds,2022-04-18 18:52:40
679,Burgeo,CA,47.6167,-57.6152,39.24,65,28,26.31,scattered clouds,2022-04-18 18:52:41
680,Marinette,US,45.1,-87.6307,36.05,100,100,11.5,light rain,2022-04-18 18:52:41
681,Rabat,MA,33.9911,-6.8401,65.05,88,40,5.75,scattered clouds,2022-04-18 18:49:00
682,Port-Gentil,GA,-0.7193,8.7815,84.16,79,75,9.22,broken clouds,2022-04-18 18:52:41
683,Altensteig,DE,48.5833,8.6,53.83,81,5,2.48,clear sky,2022-04-18 18:49:31
684,Blackburn,GB,53.75,-2.4833,53.6,76,76,4.05,broken clouds,2022-04-18 18:52:42
685,Sucha Beskidzka,PL,49.7419,19.5943,43.41,66,80,3.69,broken clouds,2022-04-18 18:52:42
686,Villa Carlos Paz,AR,-31.4241,-64.4978,75.4,30,0,8.01,clear sky,2022-04-18 18:52:42
687,Mariana,BR,-20.3778,-43.4161,71.1,74,81,5.61,broken clouds,2022-04-18 18:51:18
688,La Tuque,CA,47.4334,-72.7824,43.05,39,15,3.44,few clouds,2022-04-18 18:52:43
689,Leona Vicario,MX,20.9667,-87.1917,85.98,29,3,5.48,clear sky,2022-04-18 18:52:43
690,Marondera,ZW,-18.1853,31.5519,57.78,94,99,7.0,overcast clouds,2022-04-18 18:52:43
691,Kousseri,CM,12.0769,15.0306,94.08,24,100,1.5,overcast clouds,2022-04-18 18:52:25
692,Kamenka,RU,51.3223,42.7678,54.45,66,38,10.8,scattered clouds,2022-04-18 18:52:44
693,Pitsunda,GE,43.1592,40.3378,78.98,71,100,10.11,light rain,2022-04-18 18:52:44
694,Mozarlandia,BR,-14.7447,-50.5706,90.0,44,12,5.1,few clouds,2022-04-18 18:52:44
695,Pauini,BR,-7.7136,-66.9764,78.67,94,95,3.09,overcast clouds,2022-04-18 18:51:56
696,Canavieiras,BR,-15.675,-38.9472,74.64,88,100,8.19,overcast clouds,2022-04-18 18:52:45
697,Rincon,US,32.296,-81.2354,78.94,65,75,16.11,broken clouds,2022-04-18 18:52:45
698,Gazanjyk,TM,39.2446,55.5154,62.1,49,6,9.24,clear sky,2022-04-18 18:52:45
699,Bayir,TR,37.2687,28.2167,55.92,91,6,3.29,clear sky,2022-04-18 18:52:46
700,Oranjemund,NA,-28.55,16.4333,67.37,51,0,11.83,clear sky,2022-04-18 18:52:07
701,Marrakesh,MA,31.6315,-8.0083,82.47,34,0,12.66,clear sky,2022-04-18 18:52:46
702,Polyarnyy,RU,69.1989,33.4478,37.33,98,100,6.96,overcast clouds,2022-04-18 18:52:46
703,Prainha,BR,-1.8,-53.48,85.51,69,84,1.99,broken clouds,2022-04-18 18:49:08
704,Boda,CF,4.3189,17.4695,73.67,86,100,3.2,overcast clouds,2022-04-18 18:52:47
705,Dolores,AR,-36.3132,-57.6792,71.35,50,12,12.64,few clouds,2022-04-18 18:52:47
706,Andros,GR,37.8333,24.9333,54.16,78,99,11.63,overcast clouds,2022-04-18 18:52:47
707,Awbari,LY,26.5921,12.7805,70.0,19,0,5.82,clear sky,2022-04-18 18:52:48
708,Gracias,HN,14.5833,-88.5833,87.46,32,12,6.89,few clouds,2022-04-18 18:52:48
709,Svetlyy,RU,54.675,20.1347,42.85,72,100,10.74,overcast clouds,2022-04-18 18:52:48
710,Plouzane,FR,48.3833,-4.6167,51.85,69,40,10.36,scattered clouds,2022-04-18 18:52:49
711,Khorixas,NA,-20.3667,14.9667,83.16,36,93,5.99,overcast clouds,2022-04-18 18:52:49
712,Bailleul,FR,50.7359,2.7359,57.78,75,100,6.89,overcast clouds,2022-04-18 18:52:49
713,Galle,LK,6.0367,80.217,81.19,80,100,8.28,overcast clouds,2022-04-18 18:52:50
714,Forchheim,DE,49.7175,11.0588,57.78,69,74,4.97,broken clouds,2022-04-18 18:52:50
715,Usinsk,RU,65.9939,57.5281,29.48,97,100,6.98,overcast clouds,2022-04-18 18:52:50
716,Solhan,TR,38.9634,41.0293,52.63,63,97,2.93,overcast clouds,2022-04-18 18:52:51
717,Kindu,CD,-2.95,25.95,70.7,98,90,2.68,moderate rain,2022-04-18 18:49:08
718,Pudozh,RU,61.8099,36.5345,33.21,99,100,1.48,overcast clouds,2022-04-18 18:52:51
719,Fort Walton Beach,US,30.4058,-86.6188,79.18,65,40,17.27,scattered clouds,2022-04-18 18:48:06
720,Dzheyrakh,RU,42.8228,44.6756,49.39,59,100,11.9,overcast clouds,2022-04-18 18:52:51
721,Lovozero,RU,68.005,35.0117,37.54,99,100,7.58,overcast clouds,2022-04-18 18:52:52
722,Bonita Springs,US,26.3398,-81.7787,91.42,67,90,1.99,overcast clouds,2022-04-18 18:51:54
723,Kibre Mengist,ET,5.8833,38.9833,59.13,95,17,0.85,few clouds,2022-04-18 18:52:52
724,Arvika,SE,59.6553,12.5852,48.81,61,100,2.75,overcast clouds,2022-04-18 18:52:53
725,Cobija,BO,-11.0267,-68.7692,86.18,62,75,11.5,broken clouds,2022-04-18 18:52:53
726,Ambalavao,MG,-21.8333,46.9333,66.78,94,74,3.8,broken clouds,2022-04-18 18:52:53
727,Nova Olimpia,BR,-14.7972,-57.2881,85.84,42,14,3.89,few clouds,2022-04-18 18:52:53
728,Portsmouth,GB,50.799,-1.0913,55.45,77,100,13.0,overcast clouds,2022-04-18 18:52:54
729,Leshukonskoye,RU,64.8989,45.7622,31.91,98,100,3.13,overcast clouds,2022-04-18 18:52:55
730,Port Shepstone,ZA,-30.7414,30.455,67.05,80,1,7.52,clear sky,2022-04-18 18:52:55
731,Aadorf,CH,47.492,8.901,54.03,81,5,5.01,clear sky,2022-04-18 18:52:56
732,Aksum,ET,14.1245,38.7244,70.83,30,14,13.85,few clouds,2022-04-18 18:52:56
733,Placido De Castro,BR,-10.3353,-67.1856,85.41,51,98,3.53,overcast clouds,2022-04-18 18:52:56
734,Mutata,CO,7.2441,-76.4356,83.41,83,100,2.37,overcast clouds,2022-04-18 18:52:57
735,Varzea Grande,BR,-15.6467,-56.1325,87.67,40,20,6.91,few clouds,2022-04-18 18:52:57
736,Camacari,BR,-12.6975,-38.3242,80.37,91,84,8.52,broken clouds,2022-04-18 18:52:57
737,Paamiut,GL,61.994,-49.6678,27.37,78,100,26.13,overcast clouds,2022-04-18 18:52:58
